$POV,E,-1.79,P,822.70,Q,439.81*39
$GPRMC,121931.00,A,4801.86153,N,01056.69289,E,53.587,8.64,270520,,,A*59
$GPGGA,121931.00,4801.86153,N,01056.69289,E,1,10,0.83,1893.8,M,46.8,M,,*64
$GPGSA,A,3,25,29,18,27,16,05,21,20,31,26,,,1.36,0.83,1.07*0E
$PFLAU,0,1,2,1,0,,0,,,*4C
$PGRMZ,5646,F,2*0B
$POV,E,-1.74,P,822.81,Q,448.43*32
$POV,E,-1.37,P,822.93,Q,454.30*3F
$GPRMC,121932.00,A,4801.87646,N,01056.69599,E,54.969,7.20,270520,,,A*5A
$GPGGA,121932.00,4801.87646,N,01056.69599,E,1,10,0.83,1891.3,M,46.8,M,,*6A
$GPGSA,A,3,25,29,18,27,16,05,21,20,31,26,,,1.36,0.83,1.07*0E
$PFLAU,0,1,2,1,0,,0,,,*4C
$PGRMZ,5636,F,2*0C
$POV,E,-0.96,P,823.06,Q,460.22*3C
$POV,E,-0.83,P,823.18,Q,466.96*3E
$GPRMC,121933.00,A,4801.89181,N,01056.69880,E,56.351,6.80,270520,,,A*54
$GPGGA,121933.00,4801.89181,N,01056.69880,E,1,10,0.83,1889.0,M,46.8,M,,*66
$GPGSA,A,3,25,29,18,27,16,05,21,20,31,26,,,1.36,0.83,1.07*0E
$PFLAU,0,1,2,1,0,,0,,,*4C
$PGRMZ,5630,F,2*0A
$POV,E,-0.87,P,823.30,Q,474.52*3B
$PFLAA,0,388,15455,52,1,888888,287,,51,3.2,1*54
$POV,E,-0.94,P,823.42,Q,482.51*36
$GPRMC,121934.00,A,4801.90750,N,01056.70129,E,57.290,5.33,270520,,,A*55
$GPGGA,121934.00,4801.90750,N,01056.70129,E,1,10,0.83,1886.5,M,46.8,M,,*6B
$GPGSA,A,3,25,29,18,27,16,05,21,20,31,26,,,1.36,0.83,1.07*0E
$PFLAL,12193302jMSrwvvufNW#h]hZj;f:ET;PIPv%*10
$PFLAU,1,1,2,1,0,83,0,52,16529,888888*78
$PGRMZ,5620,F,2*0B
$POV,E,-0.89,P,823.54,Q,490.49*37
$PFLAA,0,371,15410,58,1,888888,286,,50,3.2,1*59
$POV,E,-0.79,P,823.68,Q,499.85*3E
$GPRMC,121935.00,A,4801.92358,N,01056.70311,E,58.950,3.45,270520,,,A*5C
$GPGGA,121935.00,4801.92358,N,01056.70311,E,1,10,0.83,1883.1,M,46.8,M,,*6C
$GPGSA,A,3,25,29,18,27,16,05,21,20,31,26,,,1.36,0.83,1.07*0E
$PFLAU,1,1,2,1,0,87,0,58,16476,888888*7D
$PGRMZ,5613,F,2*0B
$POV,E,-0.67,P,823.82,Q,511.28*33
$POV,E,-0.62,P,823.98,Q,520.81*3C
$GPRMC,121936.00,A,4801.94017,N,01056.70424,E,60.786,1.81,270520,,,A*54
$GPGGA,121936.00,4801.94017,N,01056.70424,E,1,10,0.83,1879.3,M,46.8,M,,*67
$GPGSA,A,3,25,29,18,27,16,05,21,20,31,26,,,1.36,0.83,1.07*0E
$PFLAA,0,352,15365,67,1,888888,286,,50,3.2,1*51
$PFLAU,0,1,2,1,0,89,0,67,16424,888888*79
$PGRMZ,5597,F,2*04
$POV,E,-0.63,P,824.16,Q,530.27*31
$POV,E,-0.78,P,824.35,Q,540.19*30
$GPRMC,121937.00,A,4801.95733,N,01056.70491,E,62.973,1.21,270520,,,A*57
$GPGGA,121937.00,4801.95733,N,01056.70491,E,1,10,0.83,1875.5,M,46.8,M,,*62
$GPGSA,A,3,25,29,18,27,16,05,21,20,31,26,,,1.36,0.83,1.07*0E
$PFLAA,0,332,15320,73,1,888888,286,,50,3.2,1*53
$PFLAU,0,1,2,1,0,90,0,73,16370,888888*72
$PGRMZ,5584,F,2*06
$POV,E,-0.96,P,824.54,Q,551.18*36
$POV,E,-1.16,P,824.72,Q,561.08*39
$GPRMC,121938.00,A,4801.97507,N,01056.70530,E,64.869,0.60,270520,,,A*5D
$GPGGA,121938.00,4801.97507,N,01056.70530,E,1,10,0.83,1871.8,M,46.8,M,,*69
$GPGSA,A,3,25,29,18,27,16,05,21,20,31,26,,,1.36,0.83,1.07*0E
$PFLAA,0,311,15275,80,1,888888,286,,50,3.2,1*5F
$PFLAL,12193702jMSrwIGDcHAVKVXK;rOsm#shng>V*3E
$PFLAU,0,1,2,1,0,89,0,80,16315,888888*75
$PGRMZ,5577,F,2*0A
$POV,E,-1.34,P,824.90,Q,567.18*32
$POV,E,-1.56,P,825.08,Q,576.71*39
$GPRMC,121939.00,A,4801.99331,N,01056.70535,E,66.548,359.67,270520,,,A*50
$GPGGA,121939.00,4801.99331,N,01056.70535,E,1,10,0.83,1868.4,M,46.8,M,,*64
$GPGSA,A,3,25,29,18,27,16,05,21,20,31,26,,,1.36,0.83,1.07*0E
$PFLAU,0,1,2,1,0,,0,,,*4C
$PGRMZ,5567,F,2*0B
$POV,E,-1.66,P,825.26,Q,594.04*38
$POV,E,-1.51,P,825.44,Q,612.65*32
$GPRMC,121940.00,A,4802.01201,N,01056.70501,E,68.204,358.90,270520,,,A*51
$GPGGA,121940.00,4802.01201,N,01056.70501,E,1,10,0.83,1865.3,M,46.8,M,,*67
$GPGSA,A,3,25,29,18,27,16,05,21,20,31,26,,,1.36,0.83,1.07*0E
$PFLAU,0,1,2,1,0,,0,,,*4C
$PGRMZ,5554,F,2*0B
$POV,E,-1.10,P,825.62,Q,627.03*35
$POV,E,-0.75,P,825.79,Q,638.52*37
$GPRMC,121941.00,A,4802.03114,N,01056.70424,E,69.655,358.00,270520,,,A*5B
$GPGGA,121941.00,4802.03114,N,01056.70424,E,1,10,0.83,1862.9,M,46.8,M,,*68
$GPGSA,A,3,25,29,18,27,16,05,21,20,31,26,,,1.36,0.83,1.07*0E
$PFLAU,0,1,2,1,0,,0,,,*4C
$PGRMZ,5544,F,2*0A
$POV,E,-0.56,P,825.95,Q,653.05*3B
$POV,E,-0.45,P,826.08,Q,666.48*31
$GPRMC,121942.00,A,4802.05058,N,01056.70311,E,70.491,357.56,270520,,,A*58
$GPGGA,121942.00,4802.05058,N,01056.70311,E,1,10,0.83,1862.1,M,46.8,M,,*6D
$GPGSA,A,3,25,29,18,27,16,05,21,20,31,26,,,1.36,0.83,1.07*0E
$PFLAL,12194102o_Q]_=WW@ZQu?q<tdOrN>J=OFOya*11
$PFLAU,0,1,2,1,0,,0,,,*4C
$PGRMZ,5541,F,2*0F
$POV,E,-0.12,P,826.18,Q,685.02*31
$PFLAA,0,341,15239,107,1,888888,5,,40,2.6,1*61
$POV,E,0.39,P,826.24,Q,699.11*15
$GPRMC,121943.00,A,4802.07016,N,01056.70165,E,70.785,356.70,270520,,,A*53
$GPGGA,121943.00,4802.07016,N,01056.70165,E,1,10,0.83,1862.5,M,46.8,M,,*61
$GPGSA,A,3,25,29,18,27,16,05,21,20,31,26,,,1.36,0.83,1.07*0E
$PFLAL,12194202jMSrwghc`;Bb_bKcsRoSBW@KBKu]*25
$PFLAU,1,1,2,1,0,92,0,107,16286,888888*4B
$PGRMZ,5541,F,2*0F
$POV,E,0.99,P,826.27,Q,708.69*1A
$POV,E,1.44,P,826.27,Q,719.12*17
$GPRMC,121944.00,A,4802.08972,N,01056.69964,E,70.413,355.39,270520,,,A*53
$GPGGA,121944.00,4802.08972,N,01056.69964,E,1,10,0.83,1864.1,M,46.8,M,,*61
$GPGSA,A,3,25,29,18,27,16,05,21,20,31,26,,,1.36,0.83,1.07*0E
$PFLAA,0,342,15244,107,1,888888,5,,40,2.6,1*68
$PFLAU,0,1,2,1,0,94,0,107,16291,888888*4A
$PGRMZ,5544,F,2*0A
$POV,E,1.59,P,826.23,Q,716.31*11
$POV,E,1.39,P,826.16,Q,709.08*15
